{
  "type": "FeatureCollection",
  "features": [
    {
      "type": "Feature",
      "properties": {
        "Name": "SMAN 26 Bandung"
      },
      "geometry": {
        "coordinates": [
          107.72394753563367,
          -6.917443468476961
        ],
        "type": "Point"
      },
      "id": 0
    },
    {
      "type": "Feature",
      "properties": {
        "Name": "SMPN 46 Bandung"
      },
      "geometry": {
        "coordinates": [
          107.72447742962038,
          -6.915534736692251
        ],
        "type": "Point"
      },
      "id": 1
    },
    {
      "type": "Feature",
      "properties": {
        "Name": "SDN Cilengkrang 029"
      },
      "geometry": {
        "coordinates": [
          107.71952469108265,
          -6.913507173006749
        ],
        "type": "Point"
      },
      "id": 2
    },
    {
      "type": "Feature",
      "properties": {
        "Nama": "Rumah Someone"
      },
      "geometry": {
        "coordinates": [
          107.7212592409428,
          -6.9148569053838
        ],
        "type": "Point"
      },
      "id": 3
    },
    {
      "type": "Feature",
      "properties": {
        "Name": "Lapangan Manglayang Sari"
      },
      "geometry": {
        "coordinates": [
          107.72294181117167,
          -6.914900545750498
        ],
        "type": "Point"
      },
      "id": 4
    },
    {
      "type": "Feature",
      "properties": {
        "Name": "TK Saya"
      },
      "geometry": {
        "coordinates": [
          107.7209917770532,
          -6.915266205046706
        ],
        "type": "Point"
      },
      "id": 5
    },
    {
      "type": "Feature",
      "properties": {
        "Name": "Rumah temen"
      },
      "geometry": {
        "coordinates": [
          107.72427404320734,
          -6.915211906292285
        ],
        "type": "Point"
      },
      "id": 6
    },
    {
      "type": "Feature",
      "properties": {
        "Name": "Bara Sport Center"
      },
      "geometry": {
        "coordinates": [
          107.71948465653782,
          -6.916775806439233
        ],
        "type": "Point"
      },
      "id": 7
    },
    {
      "type": "Feature",
      "properties": {
        "Name": "Rumah Temen"
      },
      "geometry": {
        "coordinates": [
          107.72326450405825,
          -6.914100388675777
        ],
        "type": "Point"
      },
      "id": 8
    },
    {
      "type": "Feature",
      "properties": {
        "Name": "Krida Nusantara"
      },
      "geometry": {
        "coordinates": [
          107.7267545619689,
          -6.915919835407294
        ],
        "type": "Point"
      },
      "id": 9
    },
    {
      "type": "Feature",
      "properties": {
        "Name": "Gor Bara"
      },
      "geometry": {
        "coordinates": [
          107.72044693372095,
          -6.91871788109232
        ],
        "type": "Point"
      },
      "id": 10
    },
    {
      "type": "Feature",
      "properties": {
        "Name": "Gor "
      },
      "geometry": {
        "coordinates": [
          107.72385063330518,
          -6.916557391931278
        ],
        "type": "Point"
      },
      "id": 11
    },
    {
      "type": "Feature",
      "properties": {
        "Nama": "Komplek Dwipapuri"
      },
      "geometry": {
        "coordinates": [
          107.72318842876552,
          -6.917681065698034
        ],
        "type": "Point"
      },
      "id": 12
    },
    {
      "type": "Feature",
      "properties": {
        "Name": "Indomaret Langganan"
      },
      "geometry": {
        "coordinates": [
          107.72124430468358,
          -6.920854142783554
        ],
        "type": "Point"
      },
      "id": 13
    },
    {
      "type": "Feature",
      "properties": {
        "Name": "Alfamart Langganan"
      },
      "geometry": {
        "coordinates": [
          107.72104088969883,
          -6.92085765465832
        ],
        "type": "Point"
      },
      "id": 14
    },
    {
      "type": "Feature",
      "properties": {
        "Name": "UIN SGD"
      },
      "geometry": {
        "coordinates": [
          107.71647582356019,
          -6.932047438938824
        ],
        "type": "Point"
      },
      "id": 15
    },
    {
      "type": "Feature",
      "properties": {
        "Name": "Bank BRI"
      },
      "geometry": {
        "coordinates": [
          107.7161045271057,
          -6.933293432758859
        ],
        "type": "Point"
      },
      "id": 16
    },
    {
      "type": "Feature",
      "properties": {
        "Name ": "Masjid As-Siraj"
      },
      "geometry": {
        "coordinates": [
          107.71193442604465,
          -6.929514812028216
        ],
        "type": "Point"
      },
      "id": 17
    },
    {
      "type": "Feature",
      "properties": {
        "Name": "SPBU Pertamina"
      },
      "geometry": {
        "coordinates": [
          107.71211896238748,
          -6.928951155183043
        ],
        "type": "Point"
      },
      "id": 18
    },
    {
      "type": "Feature",
      "properties": {
        "Name": "CFC"
      },
      "geometry": {
        "coordinates": [
          107.71064668995211,
          -6.926616872699313
        ],
        "type": "Point"
      },
      "id": 19
    },
    {
      "type": "Feature",
      "properties": {
        "Name ": "Borma"
      },
      "geometry": {
        "coordinates": [
          107.7103290189686,
          -6.926416510610153
        ],
        "type": "Point"
      },
      "id": 20
    },
    {
      "type": "Feature",
      "properties": {
        "Name": "Mie Gacoan Cipadung"
      },
      "geometry": {
        "coordinates": [
          107.71071310619311,
          -6.924632660467466
        ],
        "type": "Point"
      },
      "id": 21
    },
    {
      "type": "Feature",
      "properties": {
        "Name": "Ayam Bakar KQ-5"
      },
      "geometry": {
        "coordinates": [
          107.70861608921149,
          -6.919312118214307
        ],
        "type": "Point"
      },
      "id": 22
    },
    {
      "type": "Feature",
      "properties": {
        "Name": "Superindo"
      },
      "geometry": {
        "coordinates": [
          107.7056974985939,
          -6.9160021387697554
        ],
        "type": "Point"
      },
      "id": 23
    },
    {
      "type": "Feature",
      "properties": {
        "Name": "Alun Alun Ujung Berung"
      },
      "geometry": {
        "coordinates": [
          107.7015888284239,
          -6.913728824492779
        ],
        "type": "Point"
      },
      "id": 24
    },
    {
      "type": "Feature",
      "properties": {
        "Name": "Alun Alun Ujung berung"
      },
      "geometry": {
        "coordinates": [
          107.70088920682667,
          -6.91369265082848
        ],
        "type": "Point"
      },
      "id": 25
    },
    {
      "type": "Feature",
      "properties": {
        "Name": "SPBU Pertamina"
      },
      "geometry": {
        "coordinates": [
          107.695004217757,
          -6.913780520419394
        ],
        "type": "Point"
      },
      "id": 26
    },
    {
      "type": "Feature",
      "properties": {
        "Name": "Lapas Sukamiskin"
      },
      "geometry": {
        "coordinates": [
          107.67546328403375,
          -6.905962131756027
        ],
        "type": "Point"
      },
      "id": 27
    },
    {
      "type": "Feature",
      "properties": {
        "Name": "Terminal Cicaheum"
      },
      "geometry": {
        "coordinates": [
          107.6567771735854,
          -6.902286501112272
        ],
        "type": "Point"
      },
      "id": 28
    },
    {
      "type": "Feature",
      "properties": {
        "Name": "Universitas Widyatama"
      },
      "geometry": {
        "coordinates": [
          107.64482006732044,
          -6.897960235082323
        ],
        "type": "Point"
      },
      "id": 29
    },
    {
      "type": "Feature",
      "properties": {
        "Name": "TMP Cikutra"
      },
      "geometry": {
        "coordinates": [
          107.637450144826,
          -6.891369355897908
        ],
        "type": "Point"
      },
      "id": 30
    },
    {
      "type": "Feature",
      "properties": {
        "Name": "MBT ITB"
      },
      "geometry": {
        "coordinates": [
          107.60942397290307,
          -6.894469534308584
        ],
        "type": "Point"
      },
      "id": 31
    },
    {
      "type": "Feature",
      "properties": {
        "Name": "ITB"
      },
      "geometry": {
        "coordinates": [
          107.61040910916239,
          -6.890402606532703
        ],
        "type": "Point"
      },
      "id": 32
    },
    {
      "type": "Feature",
      "properties": {
        "Name": "ULBI"
      },
      "geometry": {
        "coordinates": [
          107.57604441351316,
          -6.872999344684175
        ],
        "type": "Point"
      },
      "id": 33
    },
    {
      "type": "Feature",
      "properties": {
        "Name": "Universitas Maranatha"
      },
      "geometry": {
        "coordinates": [
          107.58060313374813,
          -6.886320513163909
        ],
        "type": "Point"
      },
      "id": 34
    },
    {
      "type": "Feature",
      "properties": {
        "Name": "SMPN 17 Bandung"
      },
      "geometry": {
        "coordinates": [
          107.67296498218627,
          -6.906769669227032
        ],
        "type": "Point"
      },
      "id": 35
    },
    {
      "type": "Feature",
      "properties": {
        "Name": "Sport Jabar Arcamanik"
      },
      "geometry": {
        "coordinates": [
          107.67522151068266,
          -6.911101966653533
        ],
        "type": "Point"
      },
      "id": 36
    },
    {
      "type": "Feature",
      "properties": {
        "Name": "Pasar Cicaheum"
      },
      "geometry": {
        "coordinates": [
          107.65675864369916,
          -6.903180886341559
        ],
        "type": "Point"
      },
      "id": 37
    },
    {
      "type": "Feature",
      "properties": {
        "Name": "Masjid Al Falah"
      },
      "geometry": {
        "coordinates": [
          107.65919282519229,
          -6.9087740101214905
        ],
        "type": "Point"
      },
      "id": 38
    },
    {
      "type": "Feature",
      "properties": {
        "Name": "Masjid Al Muhajirin"
      },
      "geometry": {
        "coordinates": [
          107.65887380087781,
          -6.906955198638798
        ],
        "type": "Point"
      },
      "id": 39
    },
    {
      "type": "Feature",
      "properties": {
        "Name": "HPM"
      },
      "geometry": {
        "coordinates": [
          107.11745999183614,
          -6.301482948562295
        ],
        "type": "Point"
      },
      "id": 40
    },
    {
      "type": "Feature",
      "properties": {
        "Name": "Apartemen Regatta"
      },
      "geometry": {
        "coordinates": [
          106.79171055815033,
          -6.094418293528648
        ],
        "type": "Point"
      },
      "id": 41
    },
    {
      "type": "Feature",
      "properties": {
        "Name ": "Mutiara Mediterania Pluit"
      },
      "geometry": {
        "coordinates": [
          106.79002318004115,
          -6.110064401285982
        ],
        "type": "Point"
      },
      "id": 42
    },
    {
      "type": "Feature",
      "properties": {
        "Name": "Angke Fish Market"
      },
      "geometry": {
        "coordinates": [
          106.77444230440835,
          -6.1072114383486
        ],
        "type": "Point"
      },
      "id": 43
    },
    {
      "type": "Feature",
      "properties": {
        "Name": "Ancol"
      },
      "geometry": {
        "coordinates": [
          106.83649832060519,
          -6.125244352426776
        ],
        "type": "Point"
      },
      "id": 44
    },
    {
      "type": "Feature",
      "properties": {
        "Name": "Ancol Le Bridge Restaurant"
      },
      "geometry": {
        "coordinates": [
          106.84776928576616,
          -6.118922625354315
        ],
        "type": "Point"
      },
      "id": 45
    },
    {
      "type": "Feature",
      "properties": {
        "Name": "Husein Airport"
      },
      "geometry": {
        "coordinates": [
          107.57730280969946,
          -6.900798461578674
        ],
        "type": "Point"
      },
      "id": 46
    },
    {
      "type": "Feature",
      "properties": {
        "Name": "Tebing Citatah 125"
      },
      "geometry": {
        "coordinates": [
          107.42967959123234,
          -6.845471799394971
        ],
        "type": "Point"
      },
      "id": 47
    },
    {
      "type": "Feature",
      "properties": {
        "Name": "Kota Baru Parahyanan"
      },
      "geometry": {
        "coordinates": [
          107.49407280991068,
          -6.852221666096085
        ],
        "type": "Point"
      },
      "id": 48
    },
    {
      "type": "Feature",
      "properties": {
        "Name": "Tahura"
      },
      "geometry": {
        "coordinates": [
          107.66710587789805,
          -6.8388741347930875
        ],
        "type": "Point"
      },
      "id": 49
    },
    {
      "type": "Feature",
      "properties": {
        "Name": "Gunung Burangrang"
      },
      "geometry": {
        "coordinates": [
          107.55942900867217,
          -6.735311004231406
        ],
        "type": "Point"
      },
      "id": 50
    },
    {
      "type": "Feature",
      "properties": {
        "Name": "Gudang Pusat Peralatan"
      },
      "geometry": {
        "coordinates": [
          107.64518151520656,
          -6.881944949151475
        ],
        "type": "Point"
      },
      "id": 51
    },
    {
      "type": "Feature",
      "properties": {
        "Name": "Lembang"
      },
      "geometry": {
        "coordinates": [
          107.61668358451755,
          -6.811396642490621
        ],
        "type": "Point"
      },
      "id": 52
    },
    {
      "type": "Feature",
      "properties": {
        "Name": "Buper Kirpay"
      },
      "geometry": {
        "coordinates": [
          107.7611550019223,
          -6.893323561356922
        ],
        "type": "Point"
      },
      "id": 53
    },
    {
      "type": "Feature",
      "properties": {
        "Name ": "Gunung Manglayang"
      },
      "geometry": {
        "coordinates": [
          107.74541877588916,
          -6.874960268924056
        ],
        "type": "Point"
      },
      "id": 54
    },
    {
      "type": "Feature",
      "properties": {
        "Name": "Ciwidey"
      },
      "geometry": {
        "coordinates": [
          107.45725273175185,
          -7.1055789165681205
        ],
        "type": "Point"
      },
      "id": 55
    },
    {
      "type": "Feature",
      "properties": {
        "Name": "Gunung Muria"
      },
      "geometry": {
        "coordinates": [
          107.40247516450557,
          -7.166458375659545
        ],
        "type": "Point"
      },
      "id": 56
    }
  ]
}